[
    {
        "County": "Autauga County",
        "CurrentCases": "537",
        "FIPS": "1001",
        "Lat": "32.536382",
        "Lon": "86.644490",
        "Population": "54571",
        "State": "AL"
    },
    {
        "County": "Baldwin County",
        "CurrentCases": "680",
        "FIPS": "1003",
        "Lat": "30.659218",
        "Lon": "87.746067",
        "Population": "182265",
        "State": "AL"
    },
    {
        "County": "Barbour County",
        "CurrentCases": "325",
        "FIPS": "1005",
        "Lat": "31.870670",
        "Lon": "85.405456",
        "Population": "27457",
        "State": "AL"
    },
    {
        "County": "Bibb County",
        "CurrentCases": "170",
        "FIPS": "1007",
        "Lat": "33.015893",
        "Lon": "87.127148",
        "Population": "22915",
        "State": "AL"
    },
    {
        "County": "Blount County",
        "CurrentCases": "208",
        "FIPS": "1009",
        "Lat": "33.977448",
        "Lon": "86.567246",
        "Population": "57322",
        "State": "AL"
    },
    {
        "County": "Bullock County",
        "CurrentCases": "365",
        "FIPS": "1011",
        "Lat": "32.101759",
        "Lon": "85.717261",
        "Population": "10914",
        "State": "AL"
    },
    {
        "County": "Butler County",
        "CurrentCases": "607",
        "FIPS": "1013",
        "Lat": "31.751667",
        "Lon": "86.681969",
        "Population": "20947",
        "State": "AL"
    },
    {
        "County": "Calhoun County",
        "CurrentCases": "276",
        "FIPS": "1015",
        "Lat": "33.771706",
        "Lon": "85.822513",
        "Population": "118572",
        "State": "AL"
    },
    {
        "County": "Chambers County",
        "CurrentCases": "590",
        "FIPS": "1017",
        "Lat": "32.917943",
        "Lon": "85.391812",
        "Population": "34215",
        "State": "AL"
    },
    {
        "County": "Cherokee County",
        "CurrentCases": "74",
        "FIPS": "1019",
        "Lat": "34.069515",
        "Lon": "85.654242",
        "Population": "25989",
        "State": "AL"
    },
    {
        "County": "Chilton County",
        "CurrentCases": "214",
        "FIPS": "1021",
        "Lat": "32.854060",
        "Lon": "86.726628",
        "Population": "43643",
        "State": "AL"
    },
    {
        "County": "Choctaw County",
        "CurrentCases": "192",
        "FIPS": "1023",
        "Lat": "31.991008",
        "Lon": "88.248887",
        "Population": "13859",
        "State": "AL"
    },
    {
        "County": "Clarke County",
        "CurrentCases": "265",
        "FIPS": "1025",
        "Lat": "31.685521",
        "Lon": "87.818624",
        "Population": "25833",
        "State": "AL"
    },
    {
        "County": "Clay County",
        "CurrentCases": "53",
        "FIPS": "1027",
        "Lat": "33.267809",
        "Lon": "85.862051",
        "Population": "13932",
        "State": "AL"
    },
    {
        "County": "Cleburne County",
        "CurrentCases": "29",
        "FIPS": "1029",
        "Lat": "33.671981",
        "Lon": "85.516109",
        "Population": "14972",
        "State": "AL"
    },
    {
        "County": "Coffee County",
        "CurrentCases": "357",
        "FIPS": "1031",
        "Lat": "31.402183",
        "Lon": "85.989201",
        "Population": "49948",
        "State": "AL"
    },
    {
        "County": "Colbert County",
        "CurrentCases": "372",
        "FIPS": "1033",
        "Lat": "34.703112",
        "Lon": "87.801457",
        "Population": "54428",
        "State": "AL"
    },
    {
        "County": "Conecuh County",
        "CurrentCases": "180",
        "FIPS": "1035",
        "Lat": "31.428293",
        "Lon": "86.992029",
        "Population": "13228",
        "State": "AL"
    },
    {
        "County": "Coosa County",
        "CurrentCases": "55",
        "FIPS": "1037",
        "Lat": "32.931445",
        "Lon": "86.243482",
        "Population": "11539",
        "State": "AL"
    },
    {
        "County": "Covington County",
        "CurrentCases": "316",
        "FIPS": "1039",
        "Lat": "31.243987",
        "Lon": "86.448721",
        "Population": "37765",
        "State": "AL"
    },
    {
        "County": "Crenshaw County",
        "CurrentCases": "126",
        "FIPS": "1041",
        "Lat": "31.732826",
        "Lon": "86.319222",
        "Population": "13906",
        "State": "AL"
    },
    {
        "County": "Cullman County",
        "CurrentCases": "408",
        "FIPS": "1043",
        "Lat": "34.131923",
        "Lon": "86.869267",
        "Population": "80406",
        "State": "AL"
    },
    {
        "County": "Dale County",
        "CurrentCases": "244",
        "FIPS": "1045",
        "Lat": "31.430654",
        "Lon": "85.609476",
        "Population": "50251",
        "State": "AL"
    },
    {
        "County": "Dallas County",
        "CurrentCases": "814",
        "FIPS": "1047",
        "Lat": "32.333540",
        "Lon": "87.114356",
        "Population": "43820",
        "State": "AL"
    },
    {
        "County": "DeKalb County",
        "CurrentCases": "583",
        "FIPS": "1049",
        "Lat": "34.460929",
        "Lon": "85.803992",
        "Population": "71109",
        "State": "AL"
    },
    {
        "County": "Elmore County",
        "CurrentCases": "822",
        "FIPS": "1051",
        "Lat": "32.597229",
        "Lon": "86.142739",
        "Population": "79303",
        "State": "AL"
    },
    {
        "County": "Escambia County",
        "CurrentCases": "258",
        "FIPS": "1053",
        "Lat": "31.121748",
        "Lon": "87.168429",
        "Population": "38319",
        "State": "AL"
    },
    {
        "County": "Etowah County",
        "CurrentCases": "615",
        "FIPS": "1055",
        "Lat": "34.047638",
        "Lon": "86.034420",
        "Population": "104430",
        "State": "AL"
    },
    {
        "County": "Fayette County",
        "CurrentCases": "69",
        "FIPS": "1057",
        "Lat": "33.732249",
        "Lon": "87.752049",
        "Population": "17241",
        "State": "AL"
    },
    {
        "County": "Franklin County",
        "CurrentCases": "847",
        "FIPS": "1059",
        "Lat": "34.441988",
        "Lon": "87.842815",
        "Population": "31704",
        "State": "AL"
    },
    {
        "County": "Geneva County",
        "CurrentCases": "63",
        "FIPS": "1061",
        "Lat": "31.090866",
        "Lon": "85.824346",
        "Population": "26790",
        "State": "AL"
    },
    {
        "County": "Greene County",
        "CurrentCases": "164",
        "FIPS": "1063",
        "Lat": "32.844497",
        "Lon": "87.964201",
        "Population": "9045",
        "State": "AL"
    },
    {
        "County": "Hale County",
        "CurrentCases": "290",
        "FIPS": "1065",
        "Lat": "32.752796",
        "Lon": "87.623061",
        "Population": "15760",
        "State": "AL"
    },
    {
        "County": "Henry County",
        "CurrentCases": "130",
        "FIPS": "1067",
        "Lat": "31.516978",
        "Lon": "85.239971",
        "Population": "17302",
        "State": "AL"
    },
    {
        "County": "Houston County",
        "CurrentCases": "439",
        "FIPS": "1069",
        "Lat": "31.158193",
        "Lon": "85.296398",
        "Population": "101547",
        "State": "AL"
    },
    {
        "County": "Jackson County",
        "CurrentCases": "214",
        "FIPS": "1071",
        "Lat": "34.763522",
        "Lon": "85.977400",
        "Population": "53227",
        "State": "AL"
    },
    {
        "County": "Jefferson County",
        "CurrentCases": "4258",
        "FIPS": "1073",
        "Lat": "33.553444",
        "Lon": "86.896536",
        "Population": "658466",
        "State": "AL"
    },
    {
        "County": "Lamar County",
        "CurrentCases": "72",
        "FIPS": "1075",
        "Lat": "33.787085",
        "Lon": "88.087431",
        "Population": "14564",
        "State": "AL"
    },
    {
        "County": "Lauderdale County",
        "CurrentCases": "412",
        "FIPS": "1077",
        "Lat": "34.904122",
        "Lon": "87.650997",
        "Population": "92709",
        "State": "AL"
    },
    {
        "County": "Lawrence County",
        "CurrentCases": "103",
        "FIPS": "1079",
        "Lat": "34.529776",
        "Lon": "87.321865",
        "Population": "34339",
        "State": "AL"
    },
    {
        "County": "Lee County",
        "CurrentCases": "1188",
        "FIPS": "1081",
        "Lat": "32.604064",
        "Lon": "85.353048",
        "Population": "140247",
        "State": "AL"
    },
    {
        "County": "Limestone County",
        "CurrentCases": "407",
        "FIPS": "1083",
        "Lat": "34.810239",
        "Lon": "86.981400",
        "Population": "82782",
        "State": "AL"
    },
    {
        "County": "Lowndes County",
        "CurrentCases": "462",
        "FIPS": "1085",
        "Lat": "32.147888",
        "Lon": "86.650586",
        "Population": "11299",
        "State": "AL"
    },
    {
        "County": "Macon County",
        "CurrentCases": "168",
        "FIPS": "1087",
        "Lat": "32.387027",
        "Lon": "85.692887",
        "Population": "21452",
        "State": "AL"
    },
    {
        "County": "Madison County",
        "CurrentCases": "1047",
        "FIPS": "1089",
        "Lat": "34.764238",
        "Lon": "86.551080",
        "Population": "334811",
        "State": "AL"
    },
    {
        "County": "Marengo County",
        "CurrentCases": "278",
        "FIPS": "1091",
        "Lat": "32.247591",
        "Lon": "87.791091",
        "Population": "21027",
        "State": "AL"
    },
    {
        "County": "Marion County",
        "CurrentCases": "205",
        "FIPS": "1093",
        "Lat": "34.138219",
        "Lon": "87.881551",
        "Population": "30776",
        "State": "AL"
    },
    {
        "County": "Marshall County",
        "CurrentCases": "1505",
        "FIPS": "1095",
        "Lat": "34.309564",
        "Lon": "86.321668",
        "Population": "93019",
        "State": "AL"
    },
    {
        "County": "Mobile County",
        "CurrentCases": "3660",
        "FIPS": "1097",
        "Lat": "30.684573",
        "Lon": "88.196568",
        "Population": "412992",
        "State": "AL"
    },
    {
        "County": "Monroe County",
        "CurrentCases": "195",
        "FIPS": "1099",
        "Lat": "31.580332",
        "Lon": "87.383266",
        "Population": "23068",
        "State": "AL"
    },
    {
        "County": "Montgomery County",
        "CurrentCases": "3839",
        "FIPS": "1101",
        "Lat": "32.203651",
        "Lon": "86.203831",
        "Population": "229363",
        "State": "AL"
    },
    {
        "County": "Morgan County",
        "CurrentCases": "966",
        "FIPS": "1103",
        "Lat": "34.454484",
        "Lon": "86.846402",
        "Population": "119490",
        "State": "AL"
    },
    {
        "County": "Perry County",
        "CurrentCases": "135",
        "FIPS": "1105",
        "Lat": "32.639005",
        "Lon": "87.293827",
        "Population": "10591",
        "State": "AL"
    },
    {
        "County": "Pickens County",
        "CurrentCases": "205",
        "FIPS": "1107",
        "Lat": "33.296809",
        "Lon": "88.096878",
        "Population": "19746",
        "State": "AL"
    },
    {
        "County": "Pike County",
        "CurrentCases": "404",
        "FIPS": "1109",
        "Lat": "31.798726",
        "Lon": "85.941997",
        "Population": "32899",
        "State": "AL"
    },
    {
        "County": "Randolph County",
        "CurrentCases": "171",
        "FIPS": "1111",
        "Lat": "33.296475",
        "Lon": "85.464068",
        "Population": "22913",
        "State": "AL"
    },
    {
        "County": "Russell County",
        "CurrentCases": "474",
        "FIPS": "1113",
        "Lat": "32.289811",
        "Lon": "85.186980",
        "Population": "52947",
        "State": "AL"
    },
    {
        "County": "St. Clair County",
        "CurrentCases": "302",
        "FIPS": "1115",
        "Lat": "33.712963",
        "Lon": "86.315663",
        "Population": "83593",
        "State": "AL"
    },
    {
        "County": "Shelby County",
        "CurrentCases": "1077",
        "FIPS": "1117",
        "Lat": "33.262937",
        "Lon": "86.678104",
        "Population": "195085",
        "State": "AL"
    },
    {
        "County": "Sumter County",
        "CurrentCases": "276",
        "FIPS": "1119",
        "Lat": "32.597481",
        "Lon": "88.200057",
        "Population": "13763",
        "State": "AL"
    },
    {
        "County": "Talladega County",
        "CurrentCases": "265",
        "FIPS": "1121",
        "Lat": "33.369277",
        "Lon": "86.175805",
        "Population": "82291",
        "State": "AL"
    },
    {
        "County": "Tallapoosa County",
        "CurrentCases": "567",
        "FIPS": "1123",
        "Lat": "32.863369",
        "Lon": "85.799553",
        "Population": "41616",
        "State": "AL"
    },
    {
        "County": "Tuscaloosa County",
        "CurrentCases": "1986",
        "FIPS": "1125",
        "Lat": "33.290202",
        "Lon": "87.522860",
        "Population": "194656",
        "State": "AL"
    },
    {
        "County": "Walker County",
        "CurrentCases": "855",
        "FIPS": "1127",
        "Lat": "33.791571",
        "Lon": "87.301092",
        "Population": "67023",
        "State": "AL"
    },
    {
        "County": "Washington County",
        "CurrentCases": "101",
        "FIPS": "1129",
        "Lat": "31.406974",
        "Lon": "88.202078",
        "Population": "17581",
        "State": "AL"
    },
    {
        "County": "Wilcox County",
        "CurrentCases": "280",
        "FIPS": "1131",
        "Lat": "31.990330",
        "Lon": "87.302205",
        "Population": "11670",
        "State": "AL"
    },
    {
        "County": "Winston County",
        "CurrentCases": "231",
        "FIPS": "1133",
        "Lat": "34.155888",
        "Lon": "87.364147",
        "Population": "24484",
        "State": "AL"
    },
    {
        "County": "Aleutians East Borough",
        "CurrentCases": "0",
        "FIPS": "2013",
        "Lat": "55.243722",
        "Lon": "161.950749",
        "Population": "3141",
        "State": "AK"
    },
    {
        "County": "Aleutians West Census Area",
        "CurrentCases": "0",
        "FIPS": "2016",
        "Lat": "51.959447",
        "Lon": "178.338813",
        "Population": "5561",
        "State": "AK"
    },
    {
        "County": "Municipality of Anchorage",
        "CurrentCases": "440",
        "FIPS": "2020",
        "Lat": "61.177549",
        "Lon": "149.274354",
        "Population": "291826",
        "State": "AK"
    },
    {
        "County": "Bethel Census Area",
        "CurrentCases": "6",
        "FIPS": "2050",
        "Lat": "60.928916",
        "Lon": "160.153350",
        "Population": "17013",
        "State": "AK"
    },
    {
        "County": "Bristol Bay Borough",
        "CurrentCases": "0",
        "FIPS": "2060",
        "Lat": "58.731373",
        "Lon": "156.986612",
        "Population": "997",
        "State": "AK"
    },
    {
        "County": "Denali Borough",
        "CurrentCases": "0",
        "FIPS": "2068",
        "Lat": "63.682732",
        "Lon": "150.026719",
        "Population": "1826",
        "State": "AK"
    },
    {
        "County": "Dillingham Census Area",
        "CurrentCases": "0",
        "FIPS": "2070",
        "Lat": "59.824816",
        "Lon": "158.602233",
        "Population": "4847",
        "State": "AK"
    },
    {
        "County": "Fairbanks North Star Borough",
        "CurrentCases": "144",
        "FIPS": "2090",
        "Lat": "64.690832",
        "Lon": "146.599867",
        "Population": "97581",
        "State": "AK"
    },
    {
        "County": "Haines Borough",
        "CurrentCases": "2",
        "FIPS": "2100",
        "Lat": "59.099905",
        "Lon": "135.578102",
        "Population": "2508",
        "State": "AK"
    },
    {
        "County": "Hoonah-Angoon Census Area",
        "CurrentCases": "0",
        "FIPS": "2105",
        "Lat": "58.076434",
        "Lon": "135.185100",
        "Population": "2150",
        "State": "AK"
    },
    {
        "County": "City and Borough of Juneau",
        "CurrentCases": "44",
        "FIPS": "2110",
        "Lat": "58.372700",
        "Lon": "134.178781",
        "Population": "31275",
        "State": "AK"
    },
    {
        "County": "Kenai Peninsula Borough",
        "CurrentCases": "146",
        "FIPS": "2122",
        "Lat": "60.366373",
        "Lon": "152.321973",
        "Population": "55400",
        "State": "AK"
    },
    {
        "County": "Ketchikan Gateway Borough",
        "CurrentCases": "21",
        "FIPS": "2130",
        "Lat": "55.449938",
        "Lon": "131.106685",
        "Population": "13477",
        "State": "AK"
    },
    {
        "County": "Kodiak Island Borough",
        "CurrentCases": "3",
        "FIPS": "2150",
        "Lat": "57.553611",
        "Lon": "153.630911",
        "Population": "13592",
        "State": "AK"
    },
    {
        "County": "Lake and Peninsula Borough",
        "CurrentCases": "0",
        "FIPS": "2164",
        "Lat": "58.205065",
        "Lon": "156.705188",
        "Population": "1631",
        "State": "AK"
    },
    {
        "County": "Matanuska-Susitna Borough",
        "CurrentCases": "78",
        "FIPS": "2170",
        "Lat": "62.182174",
        "Lon": "149.407974",
        "Population": "88995",
        "State": "AK"
    },
    {
        "County": "Nome Census Area",
        "CurrentCases": "5",
        "FIPS": "2180",
        "Lat": "64.783686",
        "Lon": "164.188912",
        "Population": "9492",
        "State": "AK"
    },
    {
        "County": "North Slope Borough",
        "CurrentCases": "4",
        "FIPS": "2185",
        "Lat": "69.449343",
        "Lon": "153.472830",
        "Population": "9430",
        "State": "AK"
    },
    {
        "County": "Northwest Arctic Borough",
        "CurrentCases": "4",
        "FIPS": "2188",
        "Lat": "67.005066",
        "Lon": "160.021086",
        "Population": "7523",
        "State": "AK"
    },
    {
        "County": "Petersburg Census Area",
        "CurrentCases": "4",
        "FIPS": "2195",
        "Lat": "56.639612",
        "Lon": "133.527996",
        "Population": "3815",
        "State": "AK"
    },
    {
        "County": "Prince of Wales-Hyder Census Area",
        "CurrentCases": "2",
        "FIPS": "2198",
        "Lat": "55.415683",
        "Lon": "132.875734",
        "Population": "5559",
        "State": "AK"
    },
    {
        "County": "Sitka City and Borough",
        "CurrentCases": "11",
        "FIPS": "2220",
        "Lat": "57.142509",
        "Lon": "135.332624",
        "Population": "8881",
        "State": "AK"
    },
    {
        "County": "Skagway Municipality",
        "CurrentCases": "0",
        "FIPS": "2230",
        "Lat": "59.575097",
        "Lon": "135.335418",
        "Population": "968",
        "State": "AK"
    },
    {
        "County": "Southeast Fairbanks Census Area",
        "CurrentCases": "3",
        "FIPS": "2240",
        "Lat": "63.864997",
        "Lon": "143.218628",
        "Population": "7029",
        "State": "AK"
    },
    {
        "County": "Valdez-Cordova Census Area",
        "CurrentCases": "0",
        "FIPS": "2261",
        "Lat": "61.349840",
        "Lon": "145.023141",
        "Population": "9636",
        "State": "AK"
    },
    {
        "County": "Wade Hampton Census Area",
        "CurrentCases": "0",
        "FIPS": "2270",
        "Lat": "62.283174",
        "Lon": "163.190950",
        "Population": "7459",
        "State": "AK"
    },
    {
        "County": "Wrangell City and Borough",
        "CurrentCases": "3",
        "FIPS": "2275",
        "Lat": "56.279121",
        "Lon": "132.040326",
        "Population": "2369",
        "State": "AK"
    },
    {
        "County": "Yakutat City and Borough",
        "CurrentCases": "0",
        "FIPS": "2282",
        "Lat": "59.999083",
        "Lon": "140.239593",
        "Population": "662",
        "State": "AK"
    },
    {
        "County": "Yukon-Koyukuk Census Area",
        "CurrentCases": "2",
        "FIPS": "2290",
        "Lat": "65.376131",
        "Lon": "151.576855",
        "Population": "5588",
        "State": "AK"
    },
    {
        "County": "Apache County",
        "CurrentCases": "2337",
        "FIPS": "4001",
        "Lat": "35.385845",
        "Lon": "109.493747",
        "Population": "71518",
        "State": "AZ"
    },
    {
        "County": "Cochise County",
        "CurrentCases": "614",
        "FIPS": "4003",
        "Lat": "31.881793",
        "Lon": "109.754120",
        "Population": "131346",
        "State": "AZ"
    },
    {
        "County": "Coconino County",
        "CurrentCases": "1885",
        "FIPS": "4005",
        "Lat": "35.829692",
        "Lon": "111.773728",
        "Population": "134421",
        "State": "AZ"
    },
    {
        "County": "Gila County",
        "CurrentCases": "292",
        "FIPS": "4007",
        "Lat": "33.789618",
        "Lon": "110.811870",
        "Population": "53597",
        "State": "AZ"
    },
    {
        "County": "Graham County",
        "CurrentCases": "96",
        "FIPS": "4009",
        "Lat": "32.931828",
        "Lon": "109.878310",
        "Population": "37220",
        "State": "AZ"
    },
    {
        "County": "Greenlee County",
        "CurrentCases": "18",
        "FIPS": "4011",
        "Lat": "33.238872",
        "Lon": "109.242323",
        "Population": "8437",
        "State": "AZ"
    },
    {
        "County": "La Paz County",
        "CurrentCases": "342",
        "FIPS": "4012",
        "Lat": "33.727625",
        "Lon": "114.038793",
        "Population": "20489",
        "State": "AZ"
    },
    {
        "County": "Maricopa County",
        "CurrentCases": "48592",
        "FIPS": "4013",
        "Lat": "33.346541",
        "Lon": "112.495534",
        "Population": "3817117",
        "State": "AZ"
    },
    {
        "County": "Mohave County",
        "CurrentCases": "1071",
        "FIPS": "4015",
        "Lat": "35.717705",
        "Lon": "113.749689",
        "Population": "200186",
        "State": "AZ"
    },
    {
        "County": "Navajo County",
        "CurrentCases": "3625",
        "FIPS": "4017",
        "Lat": "35.390934",
        "Lon": "110.320908",
        "Population": "107449",
        "State": "AZ"
    },
    {
        "County": "Pima County",
        "CurrentCases": "8004",
        "FIPS": "4019",
        "Lat": "32.128237",
        "Lon": "111.783018",
        "Population": "980263",
        "State": "AZ"
    },
    {
        "County": "Pinal County",
        "CurrentCases": "3574",
        "FIPS": "4021",
        "Lat": "32.918910",
        "Lon": "111.367257",
        "Population": "375770",
        "State": "AZ"
    },
    {
        "County": "Santa Cruz County",
        "CurrentCases": "1771",
        "FIPS": "4023",
        "Lat": "31.525904",
        "Lon": "110.845190",
        "Population": "47420",
        "State": "AZ"
    },
    {
        "County": "Yavapai County",
        "CurrentCases": "781",
        "FIPS": "4025",
        "Lat": "34.630044",
        "Lon": "112.573745",
        "Population": "211033",
        "State": "AZ"
    },
    {
        "County": "Yuma County",
        "CurrentCases": "6212",
        "FIPS": "4027",
        "Lat": "32.773942",
        "Lon": "113.910905",
        "Population": "195751",
        "State": "AZ"
    },
    {
        "County": "Arkansas County",
        "CurrentCases": "28",
        "FIPS": "5001",
        "Lat": "34.289574",
        "Lon": "91.376547",
        "Population": "19019",
        "State": "AR"
    },
    {
        "County": "Ashley County",
        "CurrentCases": "71",
        "FIPS": "5003",
        "Lat": "33.190835",
        "Lon": "91.772267",
        "Population": "21853",
        "State": "AR"
    },
    {
        "County": "Baxter County",
        "CurrentCases": "20",
        "FIPS": "5005",
        "Lat": "36.280710",
        "Lon": "92.330438",
        "Population": "41513",
        "State": "AR"
    },
    {
        "County": "Benton County",
        "CurrentCases": "2723",
        "FIPS": "5007",
        "Lat": "36.337825",
        "Lon": "94.256187",
        "Population": "221339",
        "State": "AR"
    },
    {
        "County": "Boone County",
        "CurrentCases": "26",
        "FIPS": "5009",
        "Lat": "36.304308",
        "Lon": "93.079204",
        "Population": "36903",
        "State": "AR"
    },
    {
        "County": "Bradley County",
        "CurrentCases": "52",
        "FIPS": "5011",
        "Lat": "33.463819",
        "Lon": "92.168164",
        "Population": "11508",
        "State": "AR"
    },
    {
        "County": "Calhoun County",
        "CurrentCases": "0",
        "FIPS": "5013",
        "Lat": "33.560460",
        "Lon": "92.513879",
        "Population": "5368",
        "State": "AR"
    },
    {
        "County": "Carroll County",
        "CurrentCases": "168",
        "FIPS": "5015",
        "Lat": "36.337774",
        "Lon": "93.541663",
        "Population": "27446",
        "State": "AR"
    },
    {
        "County": "Chicot County",
        "CurrentCases": "134",
        "FIPS": "5017",
        "Lat": "33.267139",
        "Lon": "91.297158",
        "Population": "11800",
        "State": "AR"
    },
    {
        "County": "Clark County",
        "CurrentCases": "56",
        "FIPS": "5019",
        "Lat": "34.053312",
        "Lon": "93.176205",
        "Population": "22995",
        "State": "AR"
    },
    {
        "County": "Clay County",
        "CurrentCases": "54",
        "FIPS": "5021",
        "Lat": "36.367302",
        "Lon": "90.418704",
        "Population": "16083",
        "State": "AR"
    },
    {
        "County": "Cleburne County",
        "CurrentCases": "85",
        "FIPS": "5023",
        "Lat": "35.566288",
        "Lon": "92.059974",
        "Population": "25970",
        "State": "AR"
    },
    {
        "County": "Cleveland County",
        "CurrentCases": "25",
        "FIPS": "5025",
        "Lat": "33.893201",
        "Lon": "92.188714",
        "Population": "8689",
        "State": "AR"
    },
    {
        "County": "Columbia County",
        "CurrentCases": "83",
        "FIPS": "5027",
        "Lat": "33.215070",
        "Lon": "93.226901",
        "Population": "24552",
        "State": "AR"
    },
    {
        "County": "Conway County",
        "CurrentCases": "55",
        "FIPS": "5029",
        "Lat": "35.265702",
        "Lon": "92.689248",
        "Population": "21273",
        "State": "AR"
    },
    {
        "County": "Craighead County",
        "CurrentCases": "451",
        "FIPS": "5031",
        "Lat": "35.828268",
        "Lon": "90.630411",
        "Population": "96443",
        "State": "AR"
    },
    {
        "County": "Crawford County",
        "CurrentCases": "159",
        "FIPS": "5033",
        "Lat": "35.583041",
        "Lon": "94.236224",
        "Population": "61948",
        "State": "AR"
    },
    {
        "County": "Crittenden County",
        "CurrentCases": "746",
        "FIPS": "5035",
        "Lat": "35.211878",
        "Lon": "90.315331",
        "Population": "50902",
        "State": "AR"
    },
    {
        "County": "Cross County",
        "CurrentCases": "85",
        "FIPS": "5037",
        "Lat": "35.291259",
        "Lon": "90.773894",
        "Population": "17870",
        "State": "AR"
    },
    {
        "County": "Dallas County",
        "CurrentCases": "10",
        "FIPS": "5039",
        "Lat": "33.967823",
        "Lon": "92.653999",
        "Population": "8116",
        "State": "AR"
    },
    {
        "County": "Desha County",
        "CurrentCases": "47",
        "FIPS": "5041",
        "Lat": "33.828748",
        "Lon": "91.244427",
        "Population": "13008",
        "State": "AR"
    },
    {
        "County": "Drew County",
        "CurrentCases": "65",
        "FIPS": "5043",
        "Lat": "33.587242",
        "Lon": "91.722778",
        "Population": "18509",
        "State": "AR"
    },
    {
        "County": "Faulkner County",
        "CurrentCases": "477",
        "FIPS": "5045",
        "Lat": "35.146356",
        "Lon": "92.324654",
        "Population": "113237",
        "State": "AR"
    },
    {
        "County": "Franklin County",
        "CurrentCases": "21",
        "FIPS": "5047",
        "Lat": "35.508573",
        "Lon": "93.887672",
        "Population": "18125",
        "State": "AR"
    },
    {
        "County": "Fulton County",
        "CurrentCases": "12",
        "FIPS": "5049",
        "Lat": "36.383443",
        "Lon": "91.819239",
        "Population": "12245",
        "State": "AR"
    },
    {
        "County": "Garland County",
        "CurrentCases": "248",
        "FIPS": "5051",
        "Lat": "34.578861",
        "Lon": "93.146915",
        "Population": "96024",
        "State": "AR"
    },
    {
        "County": "Grant County",
        "CurrentCases": "40",
        "FIPS": "5053",
        "Lat": "34.288063",
        "Lon": "92.423984",
        "Population": "17853",
        "State": "AR"
    },
    {
        "County": "Greene County",
        "CurrentCases": "114",
        "FIPS": "5055",
        "Lat": "36.119922",
        "Lon": "90.565241",
        "Population": "42090",
        "State": "AR"
    },
    {
        "County": "Hempstead County",
        "CurrentCases": "50",
        "FIPS": "5057",
        "Lat": "33.728611",
        "Lon": "93.665809",
        "Population": "22609",
        "State": "AR"
    },
    {
        "County": "Hot Spring County",
        "CurrentCases": "426",
        "FIPS": "5059",
        "Lat": "34.315177",
        "Lon": "92.944147",
        "Population": "32923",
        "State": "AR"
    },
    {
        "County": "Howard County",
        "CurrentCases": "89",
        "FIPS": "5061",
        "Lat": "34.083179",
        "Lon": "93.990988",
        "Population": "13789",
        "State": "AR"
    },
    {
        "County": "Independence County",
        "CurrentCases": "55",
        "FIPS": "5063",
        "Lat": "35.737499",
        "Lon": "91.559942",
        "Population": "36647",
        "State": "AR"
    },
    {
        "County": "Izard County",
        "CurrentCases": "20",
        "FIPS": "5065",
        "Lat": "36.094879",
        "Lon": "91.913625",
        "Population": "13696",
        "State": "AR"
    },
    {
        "County": "Jackson County",
        "CurrentCases": "27",
        "FIPS": "5067",
        "Lat": "35.596605",
        "Lon": "91.223178",
        "Population": "17997",
        "State": "AR"
    },
    {
        "County": "Jefferson County",
        "CurrentCases": "700",
        "FIPS": "5069",
        "Lat": "34.277696",
        "Lon": "91.930701",
        "Population": "77435",
        "State": "AR"
    },
    {
        "County": "Johnson County",
        "CurrentCases": "227",
        "FIPS": "5071",
        "Lat": "35.573359",
        "Lon": "93.466322",
        "Population": "25540",
        "State": "AR"
    },
    {
        "County": "Lafayette County",
        "CurrentCases": "18",
        "FIPS": "5073",
        "Lat": "33.240660",
        "Lon": "93.611643",
        "Population": "7645",
        "State": "AR"
    },
    {
        "County": "Lawrence County",
        "CurrentCases": "99",
        "FIPS": "5075",
        "Lat": "36.041098",
        "Lon": "91.101153",
        "Population": "17415",
        "State": "AR"
    },
    {
        "County": "Lee County",
        "CurrentCases": "651",
        "FIPS": "5077",
        "Lat": "34.779750",
        "Lon": "90.779288",
        "Population": "10424",
        "State": "AR"
    },
    {
        "County": "Lincoln County",
        "CurrentCases": "1038",
        "FIPS": "5079",
        "Lat": "33.957665",
        "Lon": "91.727624",
        "Population": "14134",
        "State": "AR"
    },
    {
        "County": "Little River County",
        "CurrentCases": "38",
        "FIPS": "5081",
        "Lat": "33.699497",
        "Lon": "94.229774",
        "Population": "13171",
        "State": "AR"
    },
    {
        "County": "Logan County",
        "CurrentCases": "46",
        "FIPS": "5083",
        "Lat": "35.218550",
        "Lon": "93.720563",
        "Population": "22353",
        "State": "AR"
    },
    {
        "County": "Lonoke County",
        "CurrentCases": "138",
        "FIPS": "5085",
        "Lat": "34.755114",
        "Lon": "91.894132",
        "Population": "68356",
        "State": "AR"
    },
    {
        "County": "Madison County",
        "CurrentCases": "192",
        "FIPS": "5087",
        "Lat": "36.012545",
        "Lon": "93.724053",
        "Population": "15717",
        "State": "AR"
    },
    {
        "County": "Marion County",
        "CurrentCases": "6",
        "FIPS": "5089",
        "Lat": "36.266656",
        "Lon": "92.678588",
        "Population": "16653",
        "State": "AR"
    },
    {
        "County": "Miller County",
        "CurrentCases": "114",
        "FIPS": "5091",
        "Lat": "33.305505",
        "Lon": "93.901509",
        "Population": "43462",
        "State": "AR"
    },
    {
        "County": "Mississippi County",
        "CurrentCases": "168",
        "FIPS": "5093",
        "Lat": "35.766943",
        "Lon": "90.052209",
        "Population": "46480",
        "State": "AR"
    },
    {
        "County": "Monroe County",
        "CurrentCases": "12",
        "FIPS": "5095",
        "Lat": "34.679513",
        "Lon": "91.203314",
        "Population": "8149",
        "State": "AR"
    },
    {
        "County": "Montgomery County",
        "CurrentCases": "4",
        "FIPS": "5097",
        "Lat": "34.545652",
        "Lon": "93.664147",
        "Population": "9487",
        "State": "AR"
    },
    {
        "County": "Nevada County",
        "CurrentCases": "101",
        "FIPS": "5099",
        "Lat": "33.666699",
        "Lon": "93.305072",
        "Population": "8997",
        "State": "AR"
    },
    {
        "County": "Newton County",
        "CurrentCases": "5",
        "FIPS": "5101",
        "Lat": "35.910063",
        "Lon": "93.215084",
        "Population": "8330",
        "State": "AR"
    },
    {
        "County": "Ouachita County",
        "CurrentCases": "20",
        "FIPS": "5103",
        "Lat": "33.591158",
        "Lon": "92.878418",
        "Population": "26120",
        "State": "AR"
    },
    {
        "County": "Perry County",
        "CurrentCases": "29",
        "FIPS": "5105",
        "Lat": "34.946363",
        "Lon": "92.926877",
        "Population": "10445",
        "State": "AR"
    },
    {
        "County": "Phillips County",
        "CurrentCases": "142",
        "FIPS": "5107",
        "Lat": "34.425842",
        "Lon": "90.848386",
        "Population": "21757",
        "State": "AR"
    },
    {
        "County": "Pike County",
        "CurrentCases": "8",
        "FIPS": "5109",
        "Lat": "34.158191",
        "Lon": "93.658659",
        "Population": "11291",
        "State": "AR"
    },
    {
        "County": "Poinsett County",
        "CurrentCases": "58",
        "FIPS": "5111",
        "Lat": "35.568981",
        "Lon": "90.680595",
        "Population": "24583",
        "State": "AR"
    },
    {
        "County": "Polk County",
        "CurrentCases": "74",
        "FIPS": "5113",
        "Lat": "34.490915",
        "Lon": "94.230884",
        "Population": "20662",
        "State": "AR"
    },
    {
        "County": "Pope County",
        "CurrentCases": "433",
        "FIPS": "5115",
        "Lat": "35.455297",
        "Lon": "93.031535",
        "Population": "61754",
        "State": "AR"
    },
    {
        "County": "Prairie County",
        "CurrentCases": "20",
        "FIPS": "5117",
        "Lat": "34.828225",
        "Lon": "91.557200",
        "Population": "8715",
        "State": "AR"
    },
    {
        "County": "Pulaski County",
        "CurrentCases": "2036",
        "FIPS": "5119",
        "Lat": "34.773988",
        "Lon": "92.316515",
        "Population": "382748",
        "State": "AR"
    },
    {
        "County": "Randolph County",
        "CurrentCases": "48",
        "FIPS": "5121",
        "Lat": "36.341299",
        "Lon": "91.028441",
        "Population": "17969",
        "State": "AR"
    },
    {
        "County": "St. Francis County",
        "CurrentCases": "812",
        "FIPS": "5123",
        "Lat": "35.014438",
        "Lon": "90.742199",
        "Population": "28258",
        "State": "AR"
    },
    {
        "County": "Saline County",
        "CurrentCases": "275",
        "FIPS": "5125",
        "Lat": "34.648525",
        "Lon": "92.674463",
        "Population": "107118",
        "State": "AR"
    },
    {
        "County": "Scott County",
        "CurrentCases": "11",
        "FIPS": "5127",
        "Lat": "34.858869",
        "Lon": "94.063641",
        "Population": "11233",
        "State": "AR"
    },
    {
        "County": "Searcy County",
        "CurrentCases": "7",
        "FIPS": "5129",
        "Lat": "35.909660",
        "Lon": "92.699351",
        "Population": "8195",
        "State": "AR"
    },
    {
        "County": "Sebastian County",
        "CurrentCases": "468",
        "FIPS": "5131",
        "Lat": "35.196981",
        "Lon": "94.274989",
        "Population": "125744",
        "State": "AR"
    },
    {
        "County": "Sevier County",
        "CurrentCases": "700",
        "FIPS": "5133",
        "Lat": "33.994608",
        "Lon": "94.243290",
        "Population": "17058",
        "State": "AR"
    },
    {
        "County": "Sharp County",
        "CurrentCases": "53",
        "FIPS": "5135",
        "Lat": "36.173399",
        "Lon": "91.471069",
        "Population": "17264",
        "State": "AR"
    },
    {
        "County": "Stone County",
        "CurrentCases": "14",
        "FIPS": "5137",
        "Lat": "35.856989",
        "Lon": "92.140494",
        "Population": "12394",
        "State": "AR"
    },
    {
        "County": "Union County",
        "CurrentCases": "248",
        "FIPS": "5139",
        "Lat": "33.168219",
        "Lon": "92.598145",
        "Population": "41639",
        "State": "AR"
    },
    {
        "County": "Van Buren County",
        "CurrentCases": "35",
        "FIPS": "5141",
        "Lat": "35.582959",
        "Lon": "92.515977",
        "Population": "17295",
        "State": "AR"
    },
    {
        "County": "Washington County",
        "CurrentCases": "3578",
        "FIPS": "5143",
        "Lat": "35.971209",
        "Lon": "94.218417",
        "Population": "203065",
        "State": "AR"
    },
    {
        "County": "White County",
        "CurrentCases": "86",
        "FIPS": "5145",
        "Lat": "35.254722",
        "Lon": "91.753158",
        "Population": "77076",
        "State": "AR"
    },
    {
        "County": "Woodruff County",
        "CurrentCases": "6",
        "FIPS": "5147",
        "Lat": "35.189071",
        "Lon": "91.244418",
        "Population": "7260",
        "State": "AR"
    },
    {
        "County": "Yell County",
        "CurrentCases": "616",
        "FIPS": "5149",
        "Lat": "34.997713",
        "Lon": "93.408303",
        "Population": "22185",
        "State": "AR"
    },
    {
        "County": "Alameda County",
        "CurrentCases": "5964",
        "FIPS": "6001",
        "Lat": "37.648081",
        "Lon": "121.913304",
        "Population": "1510271",
        "State": "CA"
    },
    {
        "County": "Alpine County",
        "CurrentCases": "2",
        "FIPS": "6003",
        "Lat": "38.617610",
        "Lon": "119.798999",
        "Population": "1175",
        "State": "CA"
    },
    {
        "County": "Amador County",
        "CurrentCases": "22",
        "FIPS": "6005",
        "Lat": "38.443550",
        "Lon": "120.653856",
        "Population": "38091",
        "State": "CA"
    },
    {
        "County": "Butte County",
        "CurrentCases": "175",
        "FIPS": "6007",
        "Lat": "39.665959",
        "Lon": "121.601919",
        "Population": "220000",
        "State": "CA"
    },
    {
        "County": "Calaveras County",
        "CurrentCases": "32",
        "FIPS": "6009",
        "Lat": "38.187844",
        "Lon": "120.555115",
        "Population": "45578",
        "State": "CA"
    },
    {
        "County": "Colusa County",
        "CurrentCases": "50",
        "FIPS": "6011",
        "Lat": "39.177739",
        "Lon": "122.237563",
        "Population": "21419",
        "State": "CA"
    },
    {
        "County": "Contra Costa County",
        "CurrentCases": "3132",
        "FIPS": "6013",
        "Lat": "37.919479",
        "Lon": "121.951543",
        "Population": "1049025",
        "State": "CA"
    },
    {
        "County": "Del Norte County",
        "CurrentCases": "51",
        "FIPS": "6015",
        "Lat": "41.749903",
        "Lon": "123.980998",
        "Population": "28610",
        "State": "CA"
    },
    {
        "County": "El Dorado County",
        "CurrentCases": "184",
        "FIPS": "6017",
        "Lat": "38.785532",
        "Lon": "120.534398",
        "Population": "181058",
        "State": "CA"
    },
    {
        "County": "Fresno County",
        "CurrentCases": "5008",
        "FIPS": "6019",
        "Lat": "36.761006",
        "Lon": "119.655019",
        "Population": "930450",
        "State": "CA"
    },
    {
        "County": "Glenn County",
        "CurrentCases": "112",
        "FIPS": "6021",
        "Lat": "39.602546",
        "Lon": "122.401700",
        "Population": "28122",
        "State": "CA"
    },
    {
        "County": "Humboldt County",
        "CurrentCases": "133",
        "FIPS": "6023",
        "Lat": "40.706673",
        "Lon": "123.925818",
        "Population": "134623",
        "State": "CA"
    },
    {
        "County": "Imperial County",
        "CurrentCases": "6242",
        "FIPS": "6025",
        "Lat": "33.040816",
        "Lon": "115.355395",
        "Population": "174528",
        "State": "CA"
    },
    {
        "County": "Inyo County",
        "CurrentCases": "31",
        "FIPS": "6027",
        "Lat": "36.561977",
        "Lon": "117.403927",
        "Population": "18546",
        "State": "CA"
    },
    {
        "County": "Kern County",
        "CurrentCases": "4655",
        "FIPS": "6029",
        "Lat": "35.346629",
        "Lon": "118.729506",
        "Population": "839631",
        "State": "CA"
    },
    {
        "County": "Kings County",
        "CurrentCases": "2394",
        "FIPS": "6031",
        "Lat": "36.072478",
        "Lon": "119.815530",
        "Population": "152982",
        "State": "CA"
    },
    {
        "County": "Lake County",
        "CurrentCases": "60",
        "FIPS": "6033",
        "Lat": "39.094802",
        "Lon": "122.746757",
        "Population": "64665",
        "State": "CA"
    },
    {
        "County": "Lassen County",
        "CurrentCases": "12",
        "FIPS": "6035",
        "Lat": "40.721089",
        "Lon": "120.629931",
        "Population": "34895",
        "State": "CA"
    },
    {
        "County": "Los Angeles County",
        "CurrentCases": "103529",
        "FIPS": "6037",
        "Lat": "34.196398",
        "Lon": "118.261862",
        "Population": "9818605",
        "State": "CA"
    },
    {
        "County": "Madera County",
        "CurrentCases": "519",
        "FIPS": "6039",
        "Lat": "37.210039",
        "Lon": "119.749852",
        "Population": "150865",
        "State": "CA"
    },
    {
        "County": "Marin County",
        "CurrentCases": "1207",
        "FIPS": "6041",
        "Lat": "38.051817",
        "Lon": "122.745974",
        "Population": "252409",
        "State": "CA"
    },
    {
        "County": "Mariposa County",
        "CurrentCases": "26",
        "FIPS": "6043",
        "Lat": "37.570034",
        "Lon": "119.912860",
        "Population": "18251",
        "State": "CA"
    },
    {
        "County": "Mendocino County",
        "CurrentCases": "78",
        "FIPS": "6045",
        "Lat": "39.432388",
        "Lon": "123.442881",
        "Population": "87841",
        "State": "CA"
    },
    {
        "County": "Merced County",
        "CurrentCases": "1064",
        "FIPS": "6047",
        "Lat": "37.194806",
        "Lon": "120.722802",
        "Population": "255793",
        "State": "CA"
    },
    {
        "County": "Modoc County",
        "CurrentCases": "0",
        "FIPS": "6049",
        "Lat": "41.592919",
        "Lon": "120.718370",
        "Population": "9686",
        "State": "CA"
    },
    {
        "County": "Mono County",
        "CurrentCases": "42",
        "FIPS": "6051",
        "Lat": "37.915836",
        "Lon": "118.875167",
        "Population": "14202",
        "State": "CA"
    },
    {
        "County": "Monterey County",
        "CurrentCases": "1642",
        "FIPS": "6053",
        "Lat": "36.240107",
        "Lon": "121.315573",
        "Population": "415057",
        "State": "CA"
    },
    {
        "County": "Napa County",
        "CurrentCases": "317",
        "FIPS": "6055",
        "Lat": "38.507351",
        "Lon": "122.325995",
        "Population": "136484",
        "State": "CA"
    },
    {
        "County": "Nevada County",
        "CurrentCases": "116",
        "FIPS": "6057",
        "Lat": "39.295191",
        "Lon": "120.773446",
        "Population": "98764",
        "State": "CA"
    },
    {
        "County": "Orange County",
        "CurrentCases": "13843",
        "FIPS": "6059",
        "Lat": "33.675687",
        "Lon": "117.777207",
        "Population": "3010232",
        "State": "CA"
    },
    {
        "County": "Placer County",
        "CurrentCases": "684",
        "FIPS": "6061",
        "Lat": "39.062032",
        "Lon": "120.722718",
        "Population": "348432",
        "State": "CA"
    },
    {
        "County": "Plumas County",
        "CurrentCases": "9",
        "FIPS": "6063",
        "Lat": "39.995170",
        "Lon": "120.829516",
        "Population": "20007",
        "State": "CA"
    },
    {
        "County": "Riverside County",
        "CurrentCases": "17296",
        "FIPS": "6065",
        "Lat": "33.729828",
        "Lon": "116.002239",
        "Population": "2189641",
        "State": "CA"
    },
    {
        "County": "Sacramento County",
        "CurrentCases": "3223",
        "FIPS": "6067",
        "Lat": "38.450011",
        "Lon": "121.340441",
        "Population": "1418788",
        "State": "CA"
    },
    {
        "County": "San Benito County",
        "CurrentCases": "233",
        "FIPS": "6069",
        "Lat": "36.610702",
        "Lon": "121.085296",
        "Population": "55269",
        "State": "CA"
    },
    {
        "County": "San Bernardino County",
        "CurrentCases": "12550",
        "FIPS": "6071",
        "Lat": "34.857220",
        "Lon": "116.181197",
        "Population": "2035210",
        "State": "CA"
    },
    {
        "County": "San Diego County",
        "CurrentCases": "14149",
        "FIPS": "6073",
        "Lat": "33.023604",
        "Lon": "116.776117",
        "Population": "3095313",
        "State": "CA"
    },
    {
        "County": "San Francisco County",
        "CurrentCases": "3603",
        "FIPS": "6075",
        "Lat": "37.727239",
        "Lon": "123.032229",
        "Population": "805235",
        "State": "CA"
    },
    {
        "County": "San Joaquin County",
        "CurrentCases": "3856",
        "FIPS": "6077",
        "Lat": "37.935034",
        "Lon": "121.272237",
        "Population": "685306",
        "State": "CA"
    },
    {
        "County": "San Luis Obispo County",
        "CurrentCases": "611",
        "FIPS": "6079",
        "Lat": "35.385227",
        "Lon": "120.447540",
        "Population": "269637",
        "State": "CA"
    },
    {
        "County": "San Mateo County",
        "CurrentCases": "3232",
        "FIPS": "6081",
        "Lat": "37.414664",
        "Lon": "122.371542",
        "Population": "718451",
        "State": "CA"
    },
    {
        "County": "Santa Barbara County",
        "CurrentCases": "2896",
        "FIPS": "6083",
        "Lat": "34.537378",
        "Lon": "120.038485",
        "Population": "423895",
        "State": "CA"
    },
    {
        "County": "Santa Clara County",
        "CurrentCases": "4370",
        "FIPS": "6085",
        "Lat": "37.220777",
        "Lon": "121.690622",
        "Population": "1781642",
        "State": "CA"
    },
    {
        "County": "Santa Cruz County",
        "CurrentCases": "379",
        "FIPS": "6087",
        "Lat": "37.012488",
        "Lon": "122.007205",
        "Population": "262382",
        "State": "CA"
    },
    {
        "County": "Shasta County",
        "CurrentCases": "118",
        "FIPS": "6089",
        "Lat": "40.760522",
        "Lon": "122.043550",
        "Population": "177223",
        "State": "CA"
    },
    {
        "County": "Sierra County",
        "CurrentCases": "1",
        "FIPS": "6091",
        "Lat": "39.576925",
        "Lon": "120.521993",
        "Population": "3240",
        "State": "CA"
    },
    {
        "County": "Siskiyou County",
        "CurrentCases": "29",
        "FIPS": "6093",
        "Lat": "41.587986",
        "Lon": "122.533287",
        "Population": "44900",
        "State": "CA"
    },
    {
        "County": "Solano County",
        "CurrentCases": "1288",
        "FIPS": "6095",
        "Lat": "38.267226",
        "Lon": "121.939594",
        "Population": "413344",
        "State": "CA"
    },
    {
        "County": "Sonoma County",
        "CurrentCases": "1136",
        "FIPS": "6097",
        "Lat": "38.532574",
        "Lon": "122.945194",
        "Population": "483878",
        "State": "CA"
    },
    {
        "County": "Stanislaus County",
        "CurrentCases": "2255",
        "FIPS": "6099",
        "Lat": "37.562384",
        "Lon": "121.002656",
        "Population": "514453",
        "State": "CA"
    },
    {
        "County": "Sutter County",
        "CurrentCases": "176",
        "FIPS": "6101",
        "Lat": "39.035257",
        "Lon": "121.702758",
        "Population": "94737",
        "State": "CA"
    },
    {
        "County": "Tehama County",
        "CurrentCases": "78",
        "FIPS": "6103",
        "Lat": "40.126156",
        "Lon": "122.232276",
        "Population": "63463",
        "State": "CA"
    },
    {
        "County": "Trinity County",
        "CurrentCases": "2",
        "FIPS": "6105",
        "Lat": "40.647724",
        "Lon": "123.114404",
        "Population": "13786",
        "State": "CA"
    },
    {
        "County": "Tulare County",
        "CurrentCases": "4156",
        "FIPS": "6107",
        "Lat": "36.230453",
        "Lon": "118.780542",
        "Population": "442179",
        "State": "CA"
    },
    {
        "County": "Tuolumne County",
        "CurrentCases": "30",
        "FIPS": "6109",
        "Lat": "38.021451",
        "Lon": "119.964708",
        "Population": "55365",
        "State": "CA"
    },
    {
        "County": "Ventura County",
        "CurrentCases": "2740",
        "FIPS": "6111",
        "Lat": "34.358742",
        "Lon": "119.133143",
        "Population": "823318",
        "State": "CA"
    },
    {
        "County": "Yolo County",
        "CurrentCases": "526",
        "FIPS": "6113",
        "Lat": "38.679268",
        "Lon": "121.903178",
        "Population": "200849",
        "State": "CA"
    },
    {
        "County": "Yuba County",
        "CurrentCases": "71",
        "FIPS": "6115",
        "Lat": "39.270026",
        "Lon": "121.344280",
        "Population": "72155",
        "State": "CA"
    },
    {
        "County": "Adams County",
        "CurrentCases": "4185",
        "FIPS": "8001",
        "Lat": "39.874325",
        "Lon": "104.331872",
        "Population": "441603",
        "State": "CO"
    },
    {
        "County": "Alamosa County",
        "CurrentCases": "191",
        "FIPS": "8003",
        "Lat": "37.568442",
        "Lon": "105.788041",
        "Population": "15445",
        "State": "CO"
    },
    {
        "County": "Arapahoe County",
        "CurrentCases": "5202",
        "FIPS": "8005",
        "Lat": "39.644632",
        "Lon": "104.331733",
        "Population": "572003",
        "State": "CO"
    },
    {
        "County": "Archuleta County",
        "CurrentCases": "8",
        "FIPS": "8007",
        "Lat": "37.202395",
        "Lon": "107.050863",
        "Population": "12084",
        "State": "CO"
    },
    {
        "County": "Baca County",
        "CurrentCases": "14",
        "FIPS": "8009",
        "Lat": "37.303144",
        "Lon": "102.535457",
        "Population": "3788",
        "State": "CO"
    },
    {
        "County": "Bent County",
        "CurrentCases": "4",
        "FIPS": "8011",
        "Lat": "37.931891",
        "Lon": "103.077584",
        "Population": "6499",
        "State": "CO"
    },
    {
        "County": "Boulder County",
        "CurrentCases": "1384",
        "FIPS": "8013",
        "Lat": "40.094826",
        "Lon": "105.398382",
        "Population": "294567",
        "State": "CO"
    },
    {
        "County": "Broomfield County and City",
        "CurrentCases": "298",
        "FIPS": "8014",
        "Lat": "39.953383",
        "Lon": "105.052125",
        "Population": "55889",
        "State": "CO"
    },
    {
        "County": "Chaffee County",
        "CurrentCases": "77",
        "FIPS": "8015",
        "Lat": "38.738246",
        "Lon": "106.316972",
        "Population": "17809",
        "State": "CO"
    },
    {
        "County": "Cheyenne County",
        "CurrentCases": "5",
        "FIPS": "8017",
        "Lat": "38.835387",
        "Lon": "102.604585",
        "Population": "1836",
        "State": "CO"
    },
    {
        "County": "Clear Creek County",
        "CurrentCases": "19",
        "FIPS": "8019",
        "Lat": "39.689403",
        "Lon": "105.670791",
        "Population": "9088",
        "State": "CO"
    },
    {
        "County": "Conejos County",
        "CurrentCases": "13",
        "FIPS": "8021",
        "Lat": "37.213407",
        "Lon": "106.176447",
        "Population": "8256",
        "State": "CO"
    },
    {
        "County": "Costilla County",
        "CurrentCases": "21",
        "FIPS": "8023",
        "Lat": "37.277547",
        "Lon": "105.428940",
        "Population": "3524",
        "State": "CO"
    },
    {
        "County": "Crowley County",
        "CurrentCases": "70",
        "FIPS": "8025",
        "Lat": "38.321956",
        "Lon": "103.787562",
        "Population": "5823",
        "State": "CO"
    },
    {
        "County": "Custer County",
        "CurrentCases": "2",
        "FIPS": "8027",
        "Lat": "38.101994",
        "Lon": "105.373515",
        "Population": "4255",
        "State": "CO"
    },
    {
        "County": "Delta County",
        "CurrentCases": "83",
        "FIPS": "8029",
        "Lat": "38.861756",
        "Lon": "107.864757",
        "Population": "30952",
        "State": "CO"
    },
    {
        "County": "Denver County",
        "CurrentCases": "7091",
        "FIPS": "8031",
        "Lat": "39.761849",
        "Lon": "104.880625",
        "Population": "600158",
        "State": "CO"
    },
    {
        "County": "Dolores County",
        "CurrentCases": "0",
        "FIPS": "8033",
        "Lat": "37.747602",
        "Lon": "108.530383",
        "Population": "2064",
        "State": "CO"
    },
    {
        "County": "Douglas County",
        "CurrentCases": "951",
        "FIPS": "8035",
        "Lat": "39.326435",
        "Lon": "104.926199",
        "Population": "285465",
        "State": "CO"
    },
    {
        "County": "Eagle County",
        "CurrentCases": "692",
        "FIPS": "8037",
        "Lat": "39.630638",
        "Lon": "106.692944",
        "Population": "52197",
        "State": "CO"
    },
    {
        "County": "Elbert County",
        "CurrentCases": "57",
        "FIPS": "8039",
        "Lat": "39.310817",
        "Lon": "104.117928",
        "Population": "23086",
        "State": "CO"
    },
    {
        "County": "El Paso County",
        "CurrentCases": "2374",
        "FIPS": "8041",
        "Lat": "38.827383",
        "Lon": "104.527472",
        "Population": "622263",
        "State": "CO"
    },
    {
        "County": "Fremont County",
        "CurrentCases": "36",
        "FIPS": "8043",
        "Lat": "38.455658",
        "Lon": "105.421438",
        "Population": "46824",
        "State": "CO"
    },
    {
        "County": "Garfield County",
        "CurrentCases": "298",
        "FIPS": "8045",
        "Lat": "39.599352",
        "Lon": "107.909780",
        "Population": "56389",
        "State": "CO"
    },
    {
        "County": "Gilpin County",
        "CurrentCases": "7",
        "FIPS": "8047",
        "Lat": "39.861082",
        "Lon": "105.528947",
        "Population": "5441",
        "State": "CO"
    },
    {
        "County": "Grand County",
        "CurrentCases": "21",
        "FIPS": "8049",
        "Lat": "40.123289",
        "Lon": "106.095876",
        "Population": "14843",
        "State": "CO"
    },
    {
        "County": "Gunnison County",
        "CurrentCases": "187",
        "FIPS": "8051",
        "Lat": "38.669679",
        "Lon": "107.078108",
        "Population": "15324",
        "State": "CO"
    },
    {
        "County": "Hinsdale County",
        "CurrentCases": "3",
        "FIPS": "8053",
        "Lat": "37.811625",
        "Lon": "107.383405",
        "Population": "843",
        "State": "CO"
    },
    {
        "County": "Huerfano County",
        "CurrentCases": "4",
        "FIPS": "8055",
        "Lat": "37.687815",
        "Lon": "104.959928",
        "Population": "6711",
        "State": "CO"
    },
    {
        "County": "Jackson County",
        "CurrentCases": "2",
        "FIPS": "8057",
        "Lat": "40.663432",
        "Lon": "106.329248",
        "Population": "1394",
        "State": "CO"
    },
    {
        "County": "Jefferson County",
        "CurrentCases": "2682",
        "FIPS": "8059",
        "Lat": "39.586460",
        "Lon": "105.245601",
        "Population": "534543",
        "State": "CO"
    },
    {
        "County": "Kiowa County",
        "CurrentCases": "0",
        "FIPS": "8061",
        "Lat": "38.388466",
        "Lon": "102.756210",
        "Population": "1398",
        "State": "CO"
    },
    {
        "County": "Kit Carson County",
        "CurrentCases": "32",
        "FIPS": "8063",
        "Lat": "39.305340",
        "Lon": "102.603023",
        "Population": "8270",
        "State": "CO"
    },
    {
        "County": "Lake County",
        "CurrentCases": "51",
        "FIPS": "8065",
        "Lat": "39.204316",
        "Lon": "106.349696",
        "Population": "7310",
        "State": "CO"
    },
    {
        "County": "La Plata County",
        "CurrentCases": "112",
        "FIPS": "8067",
        "Lat": "37.287367",
        "Lon": "107.839718",
        "Population": "51334",
        "State": "CO"
    },
    {
        "County": "Larimer County",
        "CurrentCases": "736",
        "FIPS": "8069",
        "Lat": "40.663091",
        "Lon": "105.482131",
        "Population": "299630",
        "State": "CO"
    },
    {
        "County": "Las Animas County",
        "CurrentCases": "9",
        "FIPS": "8071",
        "Lat": "37.318831",
        "Lon": "104.044110",
        "Population": "15507",
        "State": "CO"
    },
    {
        "County": "Lincoln County",
        "CurrentCases": "4",
        "FIPS": "8073",
        "Lat": "38.993740",
        "Lon": "103.507555",
        "Population": "5467",
        "State": "CO"
    },
    {
        "County": "Logan County",
        "CurrentCases": "637",
        "FIPS": "8075",
        "Lat": "40.728091",
        "Lon": "103.090464",
        "Population": "22709",
        "State": "CO"
    },
    {
        "County": "Mesa County",
        "CurrentCases": "96",
        "FIPS": "8077",
        "Lat": "39.019492",
        "Lon": "108.461837",
        "Population": "146723",
        "State": "CO"
    },
    {
        "County": "Mineral County",
        "CurrentCases": "7",
        "FIPS": "8079",
        "Lat": "37.651478",
        "Lon": "106.932300",
        "Population": "712",
        "State": "CO"
    },
    {
        "County": "Moffat County",
        "CurrentCases": "14",
        "FIPS": "8081",
        "Lat": "40.573984",
        "Lon": "108.204521",
        "Population": "13795",
        "State": "CO"
    },
    {
        "County": "Montezuma County",
        "CurrentCases": "72",
        "FIPS": "8083",
        "Lat": "37.338025",
        "Lon": "108.595786",
        "Population": "25535",
        "State": "CO"
    },
    {
        "County": "Montrose County",
        "CurrentCases": "207",
        "FIPS": "8085",
        "Lat": "38.413427",
        "Lon": "108.263042",
        "Population": "41276",
        "State": "CO"
    },
    {
        "County": "Morgan County",
        "CurrentCases": "652",
        "FIPS": "8087",
        "Lat": "40.262354",
        "Lon": "103.807092",
        "Population": "28159",
        "State": "CO"
    },
    {
        "County": "Otero County",
        "CurrentCases": "22",
        "FIPS": "8089",
        "Lat": "37.884170",
        "Lon": "103.721260",
        "Population": "18831",
        "State": "CO"
    },
    {
        "County": "Ouray County",
        "CurrentCases": "11",
        "FIPS": "8091",
        "Lat": "38.150600",
        "Lon": "107.767133",
        "Population": "4436",
        "State": "CO"
    },
    {
        "County": "Park County",
        "CurrentCases": "27",
        "FIPS": "8093",
        "Lat": "39.118914",
        "Lon": "105.717648",
        "Population": "16206",
        "State": "CO"
    },
    {
        "County": "Phillips County",
        "CurrentCases": "16",
        "FIPS": "8095",
        "Lat": "40.594712",
        "Lon": "102.345105",
        "Population": "4442",
        "State": "CO"
    },
    {
        "County": "Pitkin County",
        "CurrentCases": "99",
        "FIPS": "8097",
        "Lat": "39.217533",
        "Lon": "106.915943",
        "Population": "17148",
        "State": "CO"
    },
    {
        "County": "Prowers County",
        "CurrentCases": "20",
        "FIPS": "8099",
        "Lat": "37.958181",
        "Lon": "102.392161",
        "Population": "12551",
        "State": "CO"
    },
    {
        "County": "Pueblo County",
        "CurrentCases": "390",
        "FIPS": "8101",
        "Lat": "38.170658",
        "Lon": "104.489893",
        "Population": "159063",
        "State": "CO"
    },
    {
        "County": "Rio Blanco County",
        "CurrentCases": "4",
        "FIPS": "8103",
        "Lat": "39.972606",
        "Lon": "108.200685",
        "Population": "6666",
        "State": "CO"
    },
    {
        "County": "Rio Grande County",
        "CurrentCases": "76",
        "FIPS": "8105",
        "Lat": "37.485763",
        "Lon": "106.453214",
        "Population": "11982",
        "State": "CO"
    },
    {
        "County": "Routt County",
        "CurrentCases": "73",
        "FIPS": "8107",
        "Lat": "40.483160",
        "Lon": "106.985289",
        "Population": "23509",
        "State": "CO"
    },
    {
        "County": "Saguache County",
        "CurrentCases": "102",
        "FIPS": "8109",
        "Lat": "38.033952",
        "Lon": "106.246675",
        "Population": "6108",
        "State": "CO"
    },
    {
        "County": "San Juan County",
        "CurrentCases": "2",
        "FIPS": "8111",
        "Lat": "37.781075",
        "Lon": "107.670257",
        "Population": "699",
        "State": "CO"
    },
    {
        "County": "San Miguel County",
        "CurrentCases": "37",
        "FIPS": "8113",
        "Lat": "38.009374",
        "Lon": "108.427326",
        "Population": "7359",
        "State": "CO"
    },
    {
        "County": "Sedgwick County",
        "CurrentCases": "0",
        "FIPS": "8115",
        "Lat": "40.871568",
        "Lon": "102.355358",
        "Population": "2379",
        "State": "CO"
    },
    {
        "County": "Summit County",
        "CurrentCases": "269",
        "FIPS": "8117",
        "Lat": "39.621023",
        "Lon": "106.137555",
        "Population": "27994",
        "State": "CO"
    },
    {
        "County": "Teller County",
        "CurrentCases": "41",
        "FIPS": "8119",
        "Lat": "38.871994",
        "Lon": "105.182552",
        "Population": "23350",
        "State": "CO"
    },
    {
        "County": "Washington County",
        "CurrentCases": "45",
        "FIPS": "8121",
        "Lat": "39.965413",
        "Lon": "103.209605",
        "Population": "4814",
        "State": "CO"
    },
    {
        "County": "Weld County",
        "CurrentCases": "2802",
        "FIPS": "8123",
        "Lat": "40.555794",
        "Lon": "104.383649",
        "Population": "252825",
        "State": "CO"
    },
    {
        "County": "Yuma County",
        "CurrentCases": "52",
        "FIPS": "8125",
        "Lat": "40.000631",
        "Lon": "102.422649",
        "Population": "10043",
        "State": "CO"
    },
    {
        "County": "Fairfield County",
        "CurrentCases": "16703",
        "FIPS": "9001",
        "Lat": "41.228103",
        "Lon": "73.366757",
        "Population": "916829",
        "State": "CT"
    },
    {
        "County": "Hartford County",
        "CurrentCases": "11662",
        "FIPS": "9003",
        "Lat": "41.806053",
        "Lon": "72.732916",
        "Population": "894014",
        "State": "CT"
    },
    {
        "County": "Litchfield County",
        "CurrentCases": "1490",
        "FIPS": "9005",
        "Lat": "41.791897",
        "Lon": "73.235428",
        "Population": "189927",
        "State": "CT"
    },
    {
        "County": "Middlesex County",
        "CurrentCases": "1305",
        "FIPS": "9007",
        "Lat": "41.434525",
        "Lon": "72.524227",
        "Population": "165676",
        "State": "CT"
    },
    {
        "County": "New Haven County",
        "CurrentCases": "12359",
        "FIPS": "9009",
        "Lat": "41.349717",
        "Lon": "72.900204",
        "Population": "862477",
        "State": "CT"
    },
    {
        "County": "New London County",
        "CurrentCases": "1268",
        "FIPS": "9011",
        "Lat": "41.478630",
        "Lon": "72.103452",
        "Population": "274055",
        "State": "CT"
    },
    {
        "County": "Tolland County",
        "CurrentCases": "913",
        "FIPS": "9013",
        "Lat": "41.858076",
        "Lon": "72.340977",
        "Population": "152691",
        "State": "CT"
    },
    {
        "County": "Windham County",
        "CurrentCases": "610",
        "FIPS": "9015",
        "Lat": "41.824999",
        "Lon": "71.990702",
        "Population": "118428",
        "State": "CT"
    },
    {
        "County": "Kent County",
        "CurrentCases": "1699",
        "FIPS": "10001",
        "Lat": "39.097088",
        "Lon": "75.502982",
        "Population": "162310",
        "State": "DE"
    },
    {
        "County": "New Castle County",
        "CurrentCases": "5079",
        "FIPS": "10003",
        "Lat": "39.575915",
        "Lon": "75.644132",
        "Population": "538479",
        "State": "DE"
    },
    {
        "County": "Sussex County",
        "CurrentCases": "4690",
        "FIPS": "10005",
        "Lat": "38.677511",
        "Lon": "75.335495",
        "Population": "197145",
        "State": "DE"
    },
    {
        "County": "Washington",
        "CurrentCases": "10327",
        "FIPS": "11001",
        "Lat": "38.904149",
        "Lon": "77.017094",
        "Population": "601723",
        "State": "DC"
    },
    {
        "County": "Alachua County",
        "CurrentCases": "1197",
        "FIPS": "12001",
        "Lat": "29.675740",
        "Lon": "82.357221",
        "Population": "247336",
        "State": "FL"
    },
    {
        "County": "Baker County",
        "CurrentCases": "63",
        "FIPS": "12003",
        "Lat": "30.324442",
        "Lon": "82.302284",
        "Population": "27115",
        "State": "FL"
    },
    {
        "County": "Bay County",
        "CurrentCases": "384",
        "FIPS": "12005",
        "Lat": "30.237563",
        "Lon": "85.631348",
        "Population": "168852",
        "State": "FL"
    },
    {
        "County": "Bradford County",
        "CurrentCases": "83",
        "FIPS": "12007",
        "Lat": "29.946934",
        "Lon": "82.166796",
        "Population": "28520",
        "State": "FL"
    },
    {
        "County": "Brevard County",
        "CurrentCases": "1793",
        "FIPS": "12009",
        "Lat": "28.298276",
        "Lon": "80.700384",
        "Population": "543376",
        "State": "FL"
    },
    {
        "County": "Broward County",
        "CurrentCases": "15624",
        "FIPS": "12011",
        "Lat": "26.193520",
        "Lon": "80.476658",
        "Population": "1748066",
        "State": "FL"
    },
    {
        "County": "Calhoun County",
        "CurrentCases": "76",
        "FIPS": "12013",
        "Lat": "30.388801",
        "Lon": "85.197916",
        "Population": "14625",
        "State": "FL"
    },
    {
        "County": "Charlotte County",
        "CurrentCases": "775",
        "FIPS": "12015",
        "Lat": "26.868826",
        "Lon": "81.940858",
        "Population": "159978",
        "State": "FL"
    },
    {
        "County": "Citrus County",
        "CurrentCases": "291",
        "FIPS": "12017",
        "Lat": "28.843628",
        "Lon": "82.524796",
        "Population": "141236",
        "State": "FL"
    },
    {
        "County": "Clay County",
        "CurrentCases": "713",
        "FIPS": "12019",
        "Lat": "29.987116",
        "Lon": "81.858147",
        "Population": "190865",
        "State": "FL"
    },
    {
        "County": "Collier County",
        "CurrentCases": "4225",
        "FIPS": "12021",
        "Lat": "26.118713",
        "Lon": "81.400884",
        "Population": "321520",
        "State": "FL"
    },
    {
        "County": "Columbia County",
        "CurrentCases": "287",
        "FIPS": "12023",
        "Lat": "30.221305",
        "Lon": "82.623127",
        "Population": "67531",
        "State": "FL"
    },
    {
        "County": "DeSoto County",
        "CurrentCases": "604",
        "FIPS": "12027",
        "Lat": "27.190581",
        "Lon": "81.806253",
        "Population": "34862",
        "State": "FL"
    },
    {
        "County": "Dixie County",
        "CurrentCases": "68",
        "FIPS": "12029",
        "Lat": "29.580899",
        "Lon": "83.195666",
        "Population": "16422",
        "State": "FL"
    },
    {
        "County": "Duval County",
        "CurrentCases": "6207",
        "FIPS": "12031",
        "Lat": "30.335245",
        "Lon": "81.648113",
        "Population": "864263",
        "State": "FL"
    },
    {
        "County": "Escambia County",
        "CurrentCases": "1952",
        "FIPS": "12033",
        "Lat": "30.611664",
        "Lon": "87.339040",
        "Population": "297619",
        "State": "FL"
    },
    {
        "County": "Flagler County",
        "CurrentCases": "310",
        "FIPS": "12035",
        "Lat": "29.474894",
        "Lon": "81.286362",
        "Population": "95696",
        "State": "FL"
    },
    {
        "County": "Franklin County",
        "CurrentCases": "6",
        "FIPS": "12037",
        "Lat": "29.810176",
        "Lon": "84.799174",
        "Population": "11549",
        "State": "FL"
    },
    {
        "County": "Gadsden County",
        "CurrentCases": "379",
        "FIPS": "12039",
        "Lat": "30.579170",
        "Lon": "84.612783",
        "Population": "46389",
        "State": "FL"
    },
    {
        "County": "Gilchrist County",
        "CurrentCases": "97",
        "FIPS": "12041",
        "Lat": "29.723456",
        "Lon": "82.795801",
        "Population": "16939",
        "State": "FL"
    },
    {
        "County": "Glades County",
        "CurrentCases": "175",
        "FIPS": "12043",
        "Lat": "26.954810",
        "Lon": "81.190820",
        "Population": "12884",
        "State": "FL"
    },
    {
        "County": "Gulf County",
        "CurrentCases": "23",
        "FIPS": "12045",
        "Lat": "29.907257",
        "Lon": "85.256537",
        "Population": "15863",
        "State": "FL"
    },
    {
        "County": "Hamilton County",
        "CurrentCases": "334",
        "FIPS": "12047",
        "Lat": "30.491102",
        "Lon": "82.951049",
        "Population": "14799",
        "State": "FL"
    },
    {
        "County": "Hardee County",
        "CurrentCases": "430",
        "FIPS": "12049",
        "Lat": "27.492846",
        "Lon": "81.821580",
        "Population": "27731",
        "State": "FL"
    },
    {
        "County": "Hendry County",
        "CurrentCases": "953",
        "FIPS": "12051",
        "Lat": "26.539340",
        "Lon": "81.151584",
        "Population": "39140",
        "State": "FL"
    },
    {
        "County": "Hernando County",
        "CurrentCases": "373",
        "FIPS": "12053",
        "Lat": "28.567911",
        "Lon": "82.464835",
        "Population": "172778",
        "State": "FL"
    },
    {
        "County": "Highlands County",
        "CurrentCases": "350",
        "FIPS": "12055",
        "Lat": "27.342627",
        "Lon": "81.340921",
        "Population": "98786",
        "State": "FL"
    },
    {
        "County": "Hillsborough County",
        "CurrentCases": "10752",
        "FIPS": "12057",
        "Lat": "27.906590",
        "Lon": "82.349568",
        "Population": "1229226",
        "State": "FL"
    },
    {
        "County": "Holmes County",
        "CurrentCases": "177",
        "FIPS": "12059",
        "Lat": "30.866222",
        "Lon": "85.812959",
        "Population": "19927",
        "State": "FL"
    },
    {
        "County": "Indian River County",
        "CurrentCases": "697",
        "FIPS": "12061",
        "Lat": "27.700638",
        "Lon": "80.574803",
        "Population": "138028",
        "State": "FL"
    },
    {
        "County": "Jackson County",
        "CurrentCases": "363",
        "FIPS": "12063",
        "Lat": "30.787812",
        "Lon": "85.210374",
        "Population": "49746",
        "State": "FL"
    },
    {
        "County": "Jefferson County",
        "CurrentCases": "49",
        "FIPS": "12065",
        "Lat": "30.424558",
        "Lon": "83.890859",
        "Population": "14761",
        "State": "FL"
    },
    {
        "County": "Lafayette County",
        "CurrentCases": "32",
        "FIPS": "12067",
        "Lat": "29.990066",
        "Lon": "83.178510",
        "Population": "8870",
        "State": "FL"
    },
    {
        "County": "Lake County",
        "CurrentCases": "1302",
        "FIPS": "12069",
        "Lat": "28.764113",
        "Lon": "81.712282",
        "Population": "297052",
        "State": "FL"
    },
    {
        "County": "Lee County",
        "CurrentCases": "5588",
        "FIPS": "12071",
        "Lat": "26.552134",
        "Lon": "81.892250",
        "Population": "618754",
        "State": "FL"
    },
    {
        "County": "Leon County",
        "CurrentCases": "1114",
        "FIPS": "12073",
        "Lat": "30.459310",
        "Lon": "84.277800",
        "Population": "275487",
        "State": "FL"
    },
    {
        "County": "Levy County",
        "CurrentCases": "174",
        "FIPS": "12075",
        "Lat": "29.284409",
        "Lon": "82.783483",
        "Population": "40801",
        "State": "FL"
    },
    {
        "County": "Liberty County",
        "CurrentCases": "222",
        "FIPS": "12077",
        "Lat": "30.259849",
        "Lon": "84.868581",
        "Population": "8365",
        "State": "FL"
    },
    {
        "County": "Madison County",
        "CurrentCases": "195",
        "FIPS": "12079",
        "Lat": "30.447228",
        "Lon": "83.470437",
        "Population": "19224",
        "State": "FL"
    },
    {
        "County": "Manatee County",
        "CurrentCases": "2856",
        "FIPS": "12081",
        "Lat": "27.481386",
        "Lon": "82.365784",
        "Population": "322833",
        "State": "FL"
    },
    {
        "County": "Marion County",
        "CurrentCases": "672",
        "FIPS": "12083",
        "Lat": "29.202805",
        "Lon": "82.043100",
        "Population": "331298",
        "State": "FL"
    },
    {
        "County": "Martin County",
        "CurrentCases": "2055",
        "FIPS": "12085",
        "Lat": "27.079954",
        "Lon": "80.398211",
        "Population": "146318",
        "State": "FL"
    },
    {
        "County": "Miami-Dade County",
        "CurrentCases": "36820",
        "FIPS": "12086",
        "Lat": "25.610494",
        "Lon": "80.499045",
        "Population": "2496435",
        "State": "FL"
    },
    {
        "County": "Monroe County",
        "CurrentCases": "259",
        "FIPS": "12087",
        "Lat": "25.601043",
        "Lon": "81.206777",
        "Population": "73090",
        "State": "FL"
    },
    {
        "County": "Nassau County",
        "CurrentCases": "182",
        "FIPS": "12089",
        "Lat": "30.605926",
        "Lon": "81.764929",
        "Population": "73314",
        "State": "FL"
    },
    {
        "County": "Okaloosa County",
        "CurrentCases": "666",
        "FIPS": "12091",
        "Lat": "30.665858",
        "Lon": "86.594194",
        "Population": "180822",
        "State": "FL"
    },
    {
        "County": "Okeechobee County",
        "CurrentCases": "377",
        "FIPS": "12093",
        "Lat": "27.385592",
        "Lon": "80.887388",
        "Population": "39996",
        "State": "FL"
    },
    {
        "County": "Orange County",
        "CurrentCases": "10314",
        "FIPS": "12095",
        "Lat": "28.514435",
        "Lon": "81.323295",
        "Population": "1145956",
        "State": "FL"
    },
    {
        "County": "Osceola County",
        "CurrentCases": "2026",
        "FIPS": "12097",
        "Lat": "28.059027",
        "Lon": "81.139312",
        "Population": "268685",
        "State": "FL"
    },
    {
        "County": "Palm Beach County",
        "CurrentCases": "14150",
        "FIPS": "12099",
        "Lat": "26.645763",
        "Lon": "80.448673",
        "Population": "1320134",
        "State": "FL"
    },
    {
        "County": "Pasco County",
        "CurrentCases": "1992",
        "FIPS": "12101",
        "Lat": "28.302024",
        "Lon": "82.455707",
        "Population": "464697",
        "State": "FL"
    },
    {
        "County": "Pinellas County",
        "CurrentCases": "6487",
        "FIPS": "12103",
        "Lat": "27.903122",
        "Lon": "82.739518",
        "Population": "916542",
        "State": "FL"
    },
    {
        "County": "Polk County",
        "CurrentCases": "3836",
        "FIPS": "12105",
        "Lat": "27.953115",
        "Lon": "81.692783",
        "Population": "602095",
        "State": "FL"
    },
    {
        "County": "Putnam County",
        "CurrentCases": "339",
        "FIPS": "12107",
        "Lat": "29.606006",
        "Lon": "81.740894",
        "Population": "74364",
        "State": "FL"
    },
    {
        "County": "St. Johns County",
        "CurrentCases": "948",
        "FIPS": "12109",
        "Lat": "29.890593",
        "Lon": "81.383914",
        "Population": "190039",
        "State": "FL"
    },
    {
        "County": "St. Lucie County",
        "CurrentCases": "1724",
        "FIPS": "12111",
        "Lat": "27.380775",
        "Lon": "80.443364",
        "Population": "277789",
        "State": "FL"
    },
    {
        "County": "Santa Rosa County",
        "CurrentCases": "593",
        "FIPS": "12113",
        "Lat": "30.703633",
        "Lon": "87.014255",
        "Population": "151372",
        "State": "FL"
    },
    {
        "County": "Sarasota County",
        "CurrentCases": "1482",
        "FIPS": "12115",
        "Lat": "27.184386",
        "Lon": "82.365835",
        "Population": "379448",
        "State": "FL"
    },
    {
        "County": "Seminole County",
        "CurrentCases": "2566",
        "FIPS": "12117",
        "Lat": "28.690079",
        "Lon": "81.131980",
        "Population": "422718",
        "State": "FL"
    },
    {
        "County": "Sumter County",
        "CurrentCases": "345",
        "FIPS": "12119",
        "Lat": "28.714294",
        "Lon": "82.074715",
        "Population": "93420",
        "State": "FL"
    },
    {
        "County": "Suwannee County",
        "CurrentCases": "499",
        "FIPS": "12121",
        "Lat": "30.189244",
        "Lon": "82.992754",
        "Population": "41551",
        "State": "FL"
    },
    {
        "County": "Taylor County",
        "CurrentCases": "79",
        "FIPS": "12123",
        "Lat": "30.016943",
        "Lon": "83.616417",
        "Population": "22570",
        "State": "FL"
    },
    {
        "County": "Union County",
        "CurrentCases": "62",
        "FIPS": "12125",
        "Lat": "30.054280",
        "Lon": "82.366918",
        "Population": "15535",
        "State": "FL"
    },
    {
        "County": "Volusia County",
        "CurrentCases": "2105",
        "FIPS": "12127",
        "Lat": "29.057617",
        "Lon": "81.161813",
        "Population": "494593",
        "State": "FL"
    },
    {
        "County": "Wakulla County",
        "CurrentCases": "60",
        "FIPS": "12129",
        "Lat": "30.140378",
        "Lon": "84.375136",
        "Population": "30776",
        "State": "FL"
    },
    {
        "County": "Walton County",
        "CurrentCases": "245",
        "FIPS": "12131",
        "Lat": "30.631211",
        "Lon": "86.176614",
        "Population": "55043",
        "State": "FL"
    },
    {
        "County": "Washington County",
        "CurrentCases": "113",
        "FIPS": "12133",
        "Lat": "30.602217",
        "Lon": "85.662797",
        "Population": "24896",
        "State": "FL"
    },
    {
        "County": "Appling County",
        "CurrentCases": "259",
        "FIPS": "13001",
        "Lat": "31.739712",
        "Lon": "82.290103",
        "Population": "18236",
        "State": "GA"
    },
    {
        "County": "Atkinson County",
        "CurrentCases": "149",
        "FIPS": "13003",
        "Lat": "31.300562",
        "Lon": "82.883614",
        "Population": "8375",
        "State": "GA"
    },
    {
        "County": "Bacon County",
        "CurrentCases": "240",
        "FIPS": "13005",
        "Lat": "31.563327",
        "Lon": "82.387859",
        "Population": "11096",
        "State": "GA"
    },
    {
        "County": "Baker County",
        "CurrentCases": "43",
        "FIPS": "13007",
        "Lat": "31.319622",
        "Lon": "84.454857",
        "Population": "3451",
        "State": "GA"
    },
    {
        "County": "Baldwin County",
        "CurrentCases": "505",
        "FIPS": "13009",
        "Lat": "33.059532",
        "Lon": "83.255362",
        "Population": "45720",
        "State": "GA"
    },
    {
        "County": "Banks County",
        "CurrentCases": "136",
        "FIPS": "13011",
        "Lat": "34.351922",
        "Lon": "83.498441",
        "Population": "18395",
        "State": "GA"
    },
    {
        "County": "Barrow County",
        "CurrentCases": "530",
        "FIPS": "13013",
        "Lat": "33.992009",
        "Lon": "83.712303",
        "Population": "69367",
        "State": "GA"
    },
    {
        "County": "Bartow County",
        "CurrentCases": "704",
        "FIPS": "13015",
        "Lat": "34.240918",
        "Lon": "84.838188",
        "Population": "100157",
        "State": "GA"
    },
    {
        "County": "Ben Hill County",
        "CurrentCases": "165",
        "FIPS": "13017",
        "Lat": "31.740776",
        "Lon": "83.147190",
        "Population": "17634",
        "State": "GA"
    },
    {
        "County": "Berrien County",
        "CurrentCases": "117",
        "FIPS": "13019",
        "Lat": "31.274308",
        "Lon": "83.231906",
        "Population": "19286",
        "State": "GA"
    },
    {
        "County": "Bibb County",
        "CurrentCases": "898",
        "FIPS": "13021",
        "Lat": "32.808844",
        "Lon": "83.694193",
        "Population": "155547",
        "State": "GA"
    },
    {
        "County": "Bleckley County",
        "CurrentCases": "62",
        "FIPS": "13023",
        "Lat": "32.435403",
        "Lon": "83.331717",
        "Population": "13063",
        "State": "GA"
    },
    {
        "County": "Brantley County",
        "CurrentCases": "95",
        "FIPS": "13025",
        "Lat": "31.197334",
        "Lon": "81.982978",
        "Population": "18411",
        "State": "GA"
    },
    {
        "County": "Brooks County",
        "CurrentCases": "157",
        "FIPS": "13027",
        "Lat": "30.833696",
        "Lon": "83.588971",
        "Population": "16243",
        "State": "GA"
    },
    {
        "County": "Bryan County",
        "CurrentCases": "130",
        "FIPS": "13029",
        "Lat": "32.017969",
        "Lon": "81.438543",
        "Population": "30233",
        "State": "GA"
    },
    {
        "County": "Bulloch County",
        "CurrentCases": "355",
        "FIPS": "13031",
        "Lat": "32.393408",
        "Lon": "81.743810",
        "Population": "70217",
        "State": "GA"
    },
    {
        "County": "Burke County",
        "CurrentCases": "144",
        "FIPS": "13033",
        "Lat": "33.063737",
        "Lon": "82.003890",
        "Population": "23316",
        "State": "GA"
    },
    {
        "County": "Butts County",
        "CurrentCases": "275",
        "FIPS": "13035",
        "Lat": "33.290355",
        "Lon": "83.958221",
        "Population": "23655",
        "State": "GA"
    },
    {
        "County": "Calhoun County",
        "CurrentCases": "163",
        "FIPS": "13037",
        "Lat": "31.521279",
        "Lon": "84.626290",
        "Population": "6694",
        "State": "GA"
    },
    {
        "County": "Camden County",
        "CurrentCases": "132",
        "FIPS": "13039",
        "Lat": "30.916358",
        "Lon": "81.636516",
        "Population": "50513",
        "State": "GA"
    },
    {
        "County": "Candler County",
        "CurrentCases": "40",
        "FIPS": "13043",
        "Lat": "32.403986",
        "Lon": "82.071446",
        "Population": "10998",
        "State": "GA"
    },
    {
        "County": "Carroll County",
        "CurrentCases": "724",
        "FIPS": "13045",
        "Lat": "33.582237",
        "Lon": "85.080527",
        "Population": "110527",
        "State": "GA"
    },
    {
        "County": "Catoosa County",
        "CurrentCases": "315",
        "FIPS": "13047",
        "Lat": "34.899393",
        "Lon": "85.137353",
        "Population": "63942",
        "State": "GA"
    },
    {
        "County": "Charlton County",
        "CurrentCases": "52",
        "FIPS": "13049",
        "Lat": "30.779904",
        "Lon": "82.139644",
        "Population": "12171",
        "State": "GA"
    },
    {
        "County": "Chatham County",
        "CurrentCases": "1365",
        "FIPS": "13051",
        "Lat": "31.974756",
        "Lon": "81.091768",
        "Population": "265128",
        "State": "GA"
    },
    {
        "County": "Chattahoochee County",
        "CurrentCases": "411",
        "FIPS": "13053",
        "Lat": "32.347445",
        "Lon": "84.788021",
        "Population": "11267",
        "State": "GA"
    },
    {
        "County": "Chattooga County",
        "CurrentCases": "61",
        "FIPS": "13055",
        "Lat": "34.474179",
        "Lon": "85.345289",
        "Population": "26015",
        "State": "GA"
    },
    {
        "County": "Cherokee County",
        "CurrentCases": "1330",
        "FIPS": "13057",
        "Lat": "34.244317",
        "Lon": "84.475057",
        "Population": "214346",
        "State": "GA"
    },
    {
        "County": "Clarke County",
        "CurrentCases": "565",
        "FIPS": "13059",
        "Lat": "33.952234",
        "Lon": "83.367130",
        "Population": "116714",
        "State": "GA"
    },
    {
        "County": "Clay County",
        "CurrentCases": "57",
        "FIPS": "13061",
        "Lat": "31.619831",
        "Lon": "84.992583",
        "Population": "3183",
        "State": "GA"
    },
    {
        "County": "Clayton County",
        "CurrentCases": "1972",
        "FIPS": "13063",
        "Lat": "33.552242",
        "Lon": "84.412977",
        "Population": "259424",
        "State": "GA"
    },
    {
        "County": "Clinch County",
        "CurrentCases": "108",
        "FIPS": "13065",
        "Lat": "30.917653",
        "Lon": "82.702614",
        "Population": "6798",
        "State": "GA"
    },
    {
        "County": "Cobb County",
        "CurrentCases": "4963",
        "FIPS": "13067",
        "Lat": "33.939940",
        "Lon": "84.574166",
        "Population": "688078",
        "State": "GA"
    },
    {
        "County": "Coffee County",
        "CurrentCases": "544",
        "FIPS": "13069",
        "Lat": "31.549245",
        "Lon": "82.844938",
        "Population": "42356",
        "State": "GA"
    },
    {
        "County": "Colquitt County",
        "CurrentCases": "980",
        "FIPS": "13071",
        "Lat": "31.189758",
        "Lon": "83.769741",
        "Population": "45498",
        "State": "GA"
    },
    {
        "County": "Columbia County",
        "CurrentCases": "498",
        "FIPS": "13073",
        "Lat": "33.550556",
        "Lon": "82.251342",
        "Population": "124053",
        "State": "GA"
    },
    {
        "County": "Cook County",
        "CurrentCases": "139",
        "FIPS": "13075",
        "Lat": "31.152935",
        "Lon": "83.429552",
        "Population": "17212",
        "State": "GA"
    },
    {
        "County": "Coweta County",
        "CurrentCases": "676",
        "FIPS": "13077",
        "Lat": "33.352897",
        "Lon": "84.762138",
        "Population": "127317",
        "State": "GA"
    },
    {
        "County": "Crawford County",
        "CurrentCases": "44",
        "FIPS": "13079",
        "Lat": "32.709446",
        "Lon": "83.979182",
        "Population": "12630",
        "State": "GA"
    },
    {
        "County": "Crisp County",
        "CurrentCases": "273",
        "FIPS": "13081",
        "Lat": "31.914753",
        "Lon": "83.753338",
        "Population": "23439",
        "State": "GA"
    },
    {
        "County": "Dade County",
        "CurrentCases": "67",
        "FIPS": "13083",
        "Lat": "34.852424",
        "Lon": "85.506201",
        "Population": "16633",
        "State": "GA"
    },
    {
        "County": "Dawson County",
        "CurrentCases": "144",
        "FIPS": "13085",
        "Lat": "34.442842",
        "Lon": "84.173284",
        "Population": "22330",
        "State": "GA"
    },
    {
        "County": "Decatur County",
        "CurrentCases": "253",
        "FIPS": "13087",
        "Lat": "30.877961",
        "Lon": "84.577744",
        "Population": "27842",
        "State": "GA"
    },
    {
        "County": "DeKalb County",
        "CurrentCases": "5914",
        "FIPS": "13089",
        "Lat": "33.770661",
        "Lon": "84.226343",
        "Population": "691893",
        "State": "GA"
    },
    {
        "County": "Dodge County",
        "CurrentCases": "104",
        "FIPS": "13091",
        "Lat": "32.160656",
        "Lon": "83.156818",
        "Population": "21796",
        "State": "GA"
    },
    {
        "County": "Dooly County",
        "CurrentCases": "210",
        "FIPS": "13093",
        "Lat": "32.151995",
        "Lon": "83.807167",
        "Population": "14918",
        "State": "GA"
    },
    {
        "County": "Dougherty County",
        "CurrentCases": "1907",
        "FIPS": "13095",
        "Lat": "31.535068",
        "Lon": "84.214444",
        "Population": "94565",
        "State": "GA"
    },
    {
        "County": "Douglas County",
        "CurrentCases": "946",
        "FIPS": "13097",
        "Lat": "33.699317",
        "Lon": "84.765944",
        "Population": "132403",
        "State": "GA"
    },
    {
        "County": "Early County",
        "CurrentCases": "261",
        "FIPS": "13099",
        "Lat": "31.324191",
        "Lon": "84.906723",
        "Population": "11008",
        "State": "GA"
    },
    {
        "County": "Echols County",
        "CurrentCases": "184",
        "FIPS": "13101",
        "Lat": "30.708500",
        "Lon": "82.836132",
        "Population": "4034",
        "State": "GA"
    },
    {
        "County": "Effingham County",
        "CurrentCases": "142",
        "FIPS": "13103",
        "Lat": "32.361711",
        "Lon": "81.343337",
        "Population": "52250",
        "State": "GA"
    },
    {
        "County": "Elbert County",
        "CurrentCases": "104",
        "FIPS": "13105",
        "Lat": "34.115017",
        "Lon": "82.842057",
        "Population": "20166",
        "State": "GA"
    },
    {
        "County": "Emanuel County",
        "CurrentCases": "116",
        "FIPS": "13107",
        "Lat": "32.591100",
        "Lon": "82.299763",
        "Population": "22598",
        "State": "GA"
    },
    {
        "County": "Evans County",
        "CurrentCases": "24",
        "FIPS": "13109",
        "Lat": "32.151902",
        "Lon": "81.887618",
        "Population": "11000",
        "State": "GA"
    },
    {
        "County": "Fannin County",
        "CurrentCases": "100",
        "FIPS": "13111",
        "Lat": "34.863837",
        "Lon": "84.319287",
        "Population": "23682",
        "State": "GA"
    },
    {
        "County": "Fayette County",
        "CurrentCases": "345",
        "FIPS": "13113",
        "Lat": "33.412717",
        "Lon": "84.493941",
        "Population": "106567",
        "State": "GA"
    },
    {
        "County": "Floyd County",
        "CurrentCases": "524",
        "FIPS": "13115",
        "Lat": "34.263677",
        "Lon": "85.213730",
        "Population": "96317",
        "State": "GA"
    },
    {
        "County": "Forsyth County",
        "CurrentCases": "844",
        "FIPS": "13117",
        "Lat": "34.225143",
        "Lon": "84.127336",
        "Population": "175511",
        "State": "GA"
    },
    {
        "County": "Franklin County",
        "CurrentCases": "196",
        "FIPS": "13119",
        "Lat": "34.375155",
        "Lon": "83.227291",
        "Population": "22084",
        "State": "GA"
    },
    {
        "County": "Fulton County",
        "CurrentCases": "7146",
        "FIPS": "13121",
        "Lat": "33.790034",
        "Lon": "84.468182",
        "Population": "920581",
        "State": "GA"
    },
    {
        "County": "Gilmer County",
        "CurrentCases": "185",
        "FIPS": "13123",
        "Lat": "34.690541",
        "Lon": "84.453984",
        "Population": "28292",
        "State": "GA"
    },
    {
        "County": "Glascock County",
        "CurrentCases": "7",
        "FIPS": "13125",
        "Lat": "33.227491",
        "Lon": "82.606913",
        "Population": "3082",
        "State": "GA"
    },
    {
        "County": "Glynn County",
        "CurrentCases": "818",
        "FIPS": "13127",
        "Lat": "31.212747",
        "Lon": "81.496517",
        "Population": "79626",
        "State": "GA"
    },
    {
        "County": "Gordon County",
        "CurrentCases": "393",
        "FIPS": "13129",
        "Lat": "34.509667",
        "Lon": "84.873862",
        "Population": "55186",
        "State": "GA"
    },
    {
        "County": "Grady County",
        "CurrentCases": "205",
        "FIPS": "13131",
        "Lat": "30.875863",
        "Lon": "84.244772",
        "Population": "25011",
        "State": "GA"
    },
    {
        "County": "Greene County",
        "CurrentCases": "98",
        "FIPS": "13133",
        "Lat": "33.576836",
        "Lon": "83.167103",
        "Population": "15994",
        "State": "GA"
    },
    {
        "County": "Gwinnett County",
        "CurrentCases": "8247",
        "FIPS": "13135",
        "Lat": "33.959101",
        "Lon": "84.022938",
        "Population": "805321",
        "State": "GA"
    },
    {
        "County": "Habersham County",
        "CurrentCases": "695",
        "FIPS": "13137",
        "Lat": "34.635108",
        "Lon": "83.526406",
        "Population": "43041",
        "State": "GA"
    },
    {
        "County": "Hall County",
        "CurrentCases": "3227",
        "FIPS": "13139",
        "Lat": "34.317588",
        "Lon": "83.818497",
        "Population": "179684",
        "State": "GA"
    },
    {
        "County": "Hancock County",
        "CurrentCases": "216",
        "FIPS": "13141",
        "Lat": "33.269220",
        "Lon": "83.000465",
        "Population": "9429",
        "State": "GA"
    },
    {
        "County": "Haralson County",
        "CurrentCases": "73",
        "FIPS": "13143",
        "Lat": "33.795165",
        "Lon": "85.220062",
        "Population": "28780",
        "State": "GA"
    },
    {
        "County": "Harris County",
        "CurrentCases": "334",
        "FIPS": "13145",
        "Lat": "32.731549",
        "Lon": "84.912432",
        "Population": "32024",
        "State": "GA"
    },
    {
        "County": "Hart County",
        "CurrentCases": "59",
        "FIPS": "13147",
        "Lat": "34.348733",
        "Lon": "82.963290",
        "Population": "25213",
        "State": "GA"
    },
    {
        "County": "Heard County",
        "CurrentCases": "51",
        "FIPS": "13149",
        "Lat": "33.290968",
        "Lon": "85.139594",
        "Population": "11834",
        "State": "GA"
    },
    {
        "County": "Henry County",
        "CurrentCases": "1224",
        "FIPS": "13151",
        "Lat": "33.452881",
        "Lon": "84.154440",
        "Population": "203922",
        "State": "GA"
    },
    {
        "County": "Houston County",
        "CurrentCases": "642",
        "FIPS": "13153",
        "Lat": "32.458381",
        "Lon": "83.662856",
        "Population": "139900",
        "State": "GA"
    },
    {
        "County": "Irwin County",
        "CurrentCases": "64",
        "FIPS": "13155",
        "Lat": "31.604306",
        "Lon": "83.277037",
        "Population": "9538",
        "State": "GA"
    },
    {
        "County": "Jackson County",
        "CurrentCases": "385",
        "FIPS": "13157",
        "Lat": "34.134157",
        "Lon": "83.565133",
        "Population": "60485",
        "State": "GA"
    },
    {
        "County": "Jasper County",
        "CurrentCases": "68",
        "FIPS": "13159",
        "Lat": "33.314905",
        "Lon": "83.687892",
        "Population": "13900",
        "State": "GA"
    },
    {
        "County": "Jeff Davis County",
        "CurrentCases": "110",
        "FIPS": "13161",
        "Lat": "31.811615",
        "Lon": "82.636825",
        "Population": "15068",
        "State": "GA"
    },